{
    "searchParameters": {
        "q": "pet groomer in new york",
        "page": 1,
        "type": "places",
        "engine": "google"
    },
    "places": [
        {
            "position": 1,
            "title": "Unleashed Spa Pet Grooming",
            "address": "218 Avenue B, New York, NY 10009",
            "latitude": 40.728964999999995,
            "longitude": -73.978595,
            "rating": 4.7,
            "ratingCount": 284,
            "category": "Pet groomer",
            "phoneNumber": "(212) 533-9300",
            "website": "http://www.unleashedspa.com/",
            "cid": "7923972167555621827"
        },
        {
            "position": 2,
            "title": "Towne House Grooming & Pet Supplies",
            "address": "288 8th Ave, New York, NY 10001",
            "latitude": 40.7462502,
            "longitude": -73.9975771,
            "rating": 4.7,
            "ratingCount": 103,
            "category": "Pet groomer",
            "phoneNumber": "(212) 929-2910",
            "website": "http://www.townehousegrooming.com/",
            "cid": "11434659729440586654"
        },
        {
            "position": 3,
            "title": "Le Pet Spa",
            "address": "300 Rector Pl, New York, NY 10280",
            "latitude": 40.708894199999996,
            "longitude": -74.0175081,
            "rating": 4.8,
            "ratingCount": 73,
            "category": "Pet groomer",
            "phoneNumber": "(212) 786-9070",
            "website": "http://lepetspabpc.com/",
            "cid": "17248246771687372108"
        },
        {
            "position": 4,
            "title": "Groomingdales",
            "address": "349 E 82nd St, New York, NY 10028",
            "latitude": 40.7746363,
            "longitude": -73.9517858,
            "rating": 4.6,
            "ratingCount": 41,
            "category": "Pet groomer",
            "phoneNumber": "(646) 837-6404",
            "website": "http://groomingdalesny.com/",
            "cid": "4572988556118255406"
        },
        {
            "position": 5,
            "title": "Lucky Paws Pet Grooming LLC",
            "address": "168 9th Ave, New York, NY 10011",
            "latitude": 40.744817499999996,
            "longitude": -74.0022829,
            "rating": 4,
            "ratingCount": 58,
            "category": "Pet groomer",
            "phoneNumber": "(212) 924-5300",
            "website": "http://luckypawsusa.com/",
            "cid": "3909807109800815870"
        },
        {
            "position": 6,
            "title": "Grooming 4 Less",
            "address": "50 Gouverneur St, New York, NY 10002",
            "latitude": 40.712517999999996,
            "longitude": -73.98352299999999,
            "rating": 4.9,
            "ratingCount": 72,
            "category": "Pet groomer",
            "phoneNumber": "(646) 431-8043",
            "website": "http://www.grooming4less.com/",
            "cid": "157760880832776297"
        },
        {
            "position": 7,
            "title": "Bark Avenue Grooming",
            "address": "167 W 83rd St, New York, NY 10024",
            "latitude": 40.785546700000005,
            "longitude": -73.9757182,
            "rating": 4.2,
            "ratingCount": 57,
            "category": "Pet groomer",
            "phoneNumber": "(646) 861-3083",
            "website": "http://www.barkavenuenyc.com/",
            "cid": "8848408934270971281"
        },
        {
            "position": 8,
            "title": "Snowball's Pets Grooming Salon",
            "address": "store front #2, 943 Columbus Ave, New York, NY 10025",
            "latitude": 40.7994006,
            "longitude": -73.9625417,
            "rating": 4.8,
            "ratingCount": 100,
            "category": "Pet groomer",
            "phoneNumber": "(212) 666-4606",
            "website": "http://www.snowballsalon.com/",
            "cid": "16804784029882445212"
        },
        {
            "position": 9,
            "title": "Doggy Stylez Grooming",
            "address": "356 E 87th St, New York, NY 10128",
            "latitude": 40.7775465,
            "longitude": -73.94911809999999,
            "rating": 4.5,
            "ratingCount": 123,
            "category": "Pet groomer",
            "phoneNumber": "(212) 996-4000",
            "website": "http://www.doggystylezny.com/",
            "cid": "5938340379747919246"
        },
        {
            "position": 10,
            "title": "GROOMIT - In-Home/Mobile Pet Grooming On Demand",
            "category": "Pet groomer",
            "phoneNumber": "(888) 396-7170",
            "website": "http://www.groomit.me/",
            "cid": "7035673402571105478"
        }
    ]
}