{
    "searchParameters": {
        "q": "dog walker in new york",
        "page": 1,
        "type": "places",
        "engine": "google"
    },
    "places": [
        {
            "position": 1,
            "title": "Spoiled Pawz Dog Walking & Pet Care, LLC",
            "address": "LLC, 5 Maryland Ave, Gaithersburg, MD 20877",
            "latitude": 39.145367799999995,
            "longitude": -77.2015665,
            "rating": 5,
            "ratingCount": 14,
            "category": "Dog walker",
            "phoneNumber": "(301) 231-1085",
            "website": "http://www.spoiledpawzofmontco.net/",
            "cid": "13271539382239909195"
        },
        {
            "position": 2,
            "title": "NYC DOG WALKERS, LLC",
            "address": "LLC, 27 W 96th St #16F, New York, NY 10025",
            "latitude": 40.7923469,
            "longitude": -73.9658923,
            "rating": 4.7,
            "ratingCount": 73,
            "category": "Dog walker",
            "phoneNumber": "(917) 912-3968",
            "website": "http://www.nycdogwalkers.com/",
            "cid": "519457282034018733"
        },
        {
            "position": 3,
            "title": "NYC POOCH",
            "address": "235 W 76th St, New York, NY 10023",
            "latitude": 40.7821286,
            "longitude": -73.9815225,
            "rating": 4.8,
            "ratingCount": 38,
            "category": "Dog walker",
            "phoneNumber": "(212) 874-6335",
            "website": "https://nycpooch.com/",
            "cid": "7075901044928600708"
        },
        {
            "position": 4,
            "title": "Bare Paws NYC Dog Walkers & Pet Sitters",
            "address": "157 East 86th St 5th floor, New York, NY 10028",
            "latitude": 40.7794427,
            "longitude": -73.95475139999999,
            "rating": 5,
            "ratingCount": 49,
            "category": "Dog walker",
            "phoneNumber": "(646) 436-1687",
            "website": "http://fourbarepaws.com/",
            "cid": "15310307255571412204"
        },
        {
            "position": 5,
            "title": "The Perfect Pooch NYC",
            "address": "8 W 108th St, New York, NY 10025",
            "latitude": 40.799451,
            "longitude": -73.959924,
            "rating": 5,
            "ratingCount": 38,
            "category": "Dog walker",
            "phoneNumber": "(917) 847-0329",
            "website": "http://www.theperfectpoochnyc.com/",
            "cid": "425199446464174472"
        },
        {
            "position": 6,
            "title": "New York Tails",
            "address": "318 E 80th St, New York, NY 10075",
            "latitude": 40.7735329,
            "longitude": -73.95358929999999,
            "rating": 4.6,
            "ratingCount": 53,
            "category": "Dog walker",
            "phoneNumber": "(212) 706-9560",
            "website": "http://www.nytails.com/",
            "cid": "14634515564153700522"
        },
        {
            "position": 7,
            "title": "MixyPaws",
            "category": "Dog walker",
            "phoneNumber": "(917) 674-3264",
            "website": "https://www.mixypaws.com/",
            "cid": "15963810017383654853"
        },
        {
            "position": 8,
            "title": "Wags West",
            "address": "157 Columbus Ave 4th floor, New York, NY 10023",
            "latitude": 40.7743146,
            "longitude": -73.98079670000001,
            "rating": 5,
            "ratingCount": 53,
            "category": "Dog walker",
            "phoneNumber": "(917) 817-1073",
            "website": "https://wagswestnyc.com/",
            "cid": "8118771554360994154"
        },
        {
            "position": 9,
            "title": "Benterprise Dog Walking LLC",
            "address": "706 Amsterdam Ave, New York, NY 10025",
            "latitude": 40.7917444,
            "longitude": -73.9693829,
            "rating": 4.9,
            "ratingCount": 56,
            "category": "Dog walker",
            "phoneNumber": "(917) 742-9922",
            "website": "http://benterprisewalks.com/",
            "cid": "1604697979386289620"
        },
        {
            "position": 10,
            "title": "The Big City Woof Walker",
            "address": "38 Peck Slip, New York, NY 10038",
            "latitude": 40.707440299999995,
            "longitude": -74.0048334,
            "rating": 4.9,
            "ratingCount": 63,
            "category": "Dog walker",
            "phoneNumber": "(347) 974-0360",
            "website": "http://www.thebigcitywoofwalker.com/",
            "cid": "15689710292928067577"
        }
    ]
}